{"4393":{"oid":"4393","type":"trace","flag":"","creator":"1","name":"CROPP Farms","upc":"","imagelink":"","description":"","slug":"cropp-farms","category":"","weight":"0","emissions":"0","embodied":"0","transport":"0","process":"0","endoflife":"0","shipping":"36174.93","lifetime":null,"usagetype":"","usageenergy":null,"usageemissions":null,"timecreated":"2010-11-08 19:41:08.781699","timemodified":"2010-11-16 09:04:49","visibility":"private","showfootprint":"on","showembodied":"on","showtransport":"on","showprocess":"on","showendoflife":"on","showlastleg":"on","showuse":"on","showstats":"on","stops":{"origin":{"related_to":"4393","part_or_object":"o","notes":null,"placename":"La Farge, WI 54639, USA","id":"6801","category":"1","lat":"43.5746959","lon":"-90.6404083","name":"origin","hops":{"incoming":[{"transport_id":"17","id":"4496","transport_name":"None Selected","transport_description":null,"transport_unit":"kg km","transport_co2_eq":"0.000000","from_stop_id":"6802","from_stop_lat":"44.5588028","from_stop_lon":"-72.5778415","to_stop_id":"6801","to_stop_name":"origin","to_stop_lat":"43.5746959","placename":"Vermont, USA","to_stop_lon":"-90.6404083","to_stop":{"id":"6801","name":"origin","lat":"43.5746959","placename":"La Farge, WI 54639, USA","lon":"-90.6404083"},"from_stop":{"name":"origin","id":"6802","lat":"44.5588028","lon":"-72.5778415","placename":"Vermont, USA"}},{"transport_id":"17","id":"4497","transport_name":"None Selected","transport_description":null,"transport_unit":"kg km","transport_co2_eq":"0.000000","from_stop_id":"6803","from_stop_lat":"43.9695148","from_stop_lon":"-99.9018131","to_stop_id":"6801","to_stop_name":"origin","to_stop_lat":"43.5746959","placename":"South Dakota, USA","to_stop_lon":"-90.6404083","to_stop":{"id":"6801","name":"origin","lat":"43.5746959","placename":"La Farge, WI 54639, USA","lon":"-90.6404083"},"from_stop":{"name":"origin","id":"6803","lat":"43.9695148","lon":"-99.9018131","placename":"South Dakota, USA"}},{"transport_id":"17","id":"4498","transport_name":"None Selected","transport_description":null,"transport_unit":"kg km","transport_co2_eq":"0.000000","from_stop_id":"6804","from_stop_lat":"43.7844397","from_stop_lon":"-88.7878678","to_stop_id":"6801","to_stop_name":"origin","to_stop_lat":"43.5746959","placename":"Wisconsin, USA","to_stop_lon":"-90.6404083","to_stop":{"id":"6801","name":"origin","lat":"43.5746959","placename":"La Farge, WI 54639, USA","lon":"-90.6404083"},"from_stop":{"name":"origin","id":"6804","lat":"43.7844397","lon":"-88.7878678","placename":"Wisconsin, USA"}},{"transport_id":"17","id":"4499","transport_name":"None Selected","transport_description":null,"transport_unit":"kg km","transport_co2_eq":"0.000000","from_stop_id":"6805","from_stop_lat":"40.4172871","from_stop_lon":"-82.907123","to_stop_id":"6801","to_stop_name":"origin","to_stop_lat":"43.5746959","placename":"Ohio, USA","to_stop_lon":"-90.6404083","to_stop":{"id":"6801","name":"origin","lat":"43.5746959","placename":"La Farge, WI 54639, USA","lon":"-90.6404083"},"from_stop":{"name":"origin","id":"6805","lat":"40.4172871","lon":"-82.907123","placename":"Ohio, USA"}},{"transport_id":"17","id":"4500","transport_name":"None Selected","transport_description":null,"transport_unit":"kg km","transport_co2_eq":"0.000000","from_stop_id":"6806","from_stop_lat":"46.729553","from_stop_lon":"-94.6858998","to_stop_id":"6801","to_stop_name":"origin","to_stop_lat":"43.5746959","placename":"Minnesota, USA","to_stop_lon":"-90.6404083","to_stop":{"id":"6801","name":"origin","lat":"43.5746959","placename":"La Farge, WI 54639, USA","lon":"-90.6404083"},"from_stop":{"name":"origin","id":"6806","lat":"46.729553","lon":"-94.6858998","placename":"Minnesota, USA"}},{"transport_id":"17","id":"4501","transport_name":"None Selected","transport_description":null,"transport_unit":"kg km","transport_co2_eq":"0.000000","from_stop_id":"6807","from_stop_lat":"41.2033216","from_stop_lon":"-77.1945247","to_stop_id":"6801","to_stop_name":"origin","to_stop_lat":"43.5746959","placename":"Pennsylvania, USA","to_stop_lon":"-90.6404083","to_stop":{"id":"6801","name":"origin","lat":"43.5746959","placename":"La Farge, WI 54639, USA","lon":"-90.6404083"},"from_stop":{"name":"origin","id":"6807","lat":"41.2033216","lon":"-77.1945247","placename":"Pennsylvania, USA"}},{"transport_id":"17","id":"4502","transport_name":"None Selected","transport_description":null,"transport_unit":"kg km","transport_co2_eq":"0.000000","from_stop_id":"6808","from_stop_lat":"40.5512165","from_stop_lon":"-85.6023643","to_stop_id":"6801","to_stop_name":"origin","to_stop_lat":"43.5746959","placename":"Indiana, USA","to_stop_lon":"-90.6404083","to_stop":{"id":"6801","name":"origin","lat":"43.5746959","placename":"La Farge, WI 54639, USA","lon":"-90.6404083"},"from_stop":{"name":"origin","id":"6808","lat":"40.5512165","lon":"-85.6023643","placename":"Indiana, USA"}},{"transport_id":"17","id":"4503","transport_name":"None Selected","transport_description":null,"transport_unit":"kg km","transport_co2_eq":"0.000000","from_stop_id":"6809","from_stop_lat":"43.2994285","from_stop_lon":"-74.2179326","to_stop_id":"6801","to_stop_name":"origin","to_stop_lat":"43.5746959","placename":"New York, USA","to_stop_lon":"-90.6404083","to_stop":{"id":"6801","name":"origin","lat":"43.5746959","placename":"La Farge, WI 54639, USA","lon":"-90.6404083"},"from_stop":{"name":"origin","id":"6809","lat":"43.2994285","lon":"-74.2179326","placename":"New York, USA"}},{"transport_id":"17","id":"4504","transport_name":"None Selected","transport_description":null,"transport_unit":"kg km","transport_co2_eq":"0.000000","from_stop_id":"6810","from_stop_lat":"41.8780025","from_stop_lon":"-93.097702","to_stop_id":"6801","to_stop_name":"origin","to_stop_lat":"43.5746959","placename":"Iowa, USA","to_stop_lon":"-90.6404083","to_stop":{"id":"6801","name":"origin","lat":"43.5746959","placename":"La Farge, WI 54639, USA","lon":"-90.6404083"},"from_stop":{"name":"origin","id":"6810","lat":"41.8780025","lon":"-93.097702","placename":"Iowa, USA"}},{"transport_id":"17","id":"4505","transport_name":"None Selected","transport_description":null,"transport_unit":"kg km","transport_co2_eq":"0.000000","from_stop_id":"6811","from_stop_lat":"44.3148443","from_stop_lon":"-85.6023643","to_stop_id":"6801","to_stop_name":"origin","to_stop_lat":"43.5746959","placename":"Michigan, USA","to_stop_lon":"-90.6404083","to_stop":{"id":"6801","name":"origin","lat":"43.5746959","placename":"La Farge, WI 54639, USA","lon":"-90.6404083"},"from_stop":{"name":"origin","id":"6811","lat":"44.3148443","lon":"-85.6023643","placename":"Michigan, USA"}},{"transport_id":"17","id":"4506","transport_name":"None Selected","transport_description":null,"transport_unit":"kg km","transport_co2_eq":"0.000000","from_stop_id":"6812","from_stop_lat":"45.253783","from_stop_lon":"-69.4454689","to_stop_id":"6801","to_stop_name":"origin","to_stop_lat":"43.5746959","placename":"Maine, USA","to_stop_lon":"-90.6404083","to_stop":{"id":"6801","name":"origin","lat":"43.5746959","placename":"La Farge, WI 54639, USA","lon":"-90.6404083"},"from_stop":{"name":"origin","id":"6812","lat":"45.253783","lon":"-69.4454689","placename":"Maine, USA"}},{"transport_id":"17","id":"4507","transport_name":"None Selected","transport_description":null,"transport_unit":"kg km","transport_co2_eq":"0.000000","from_stop_id":"6813","from_stop_lat":"47.7510741","from_stop_lon":"-120.7401386","to_stop_id":"6801","to_stop_name":"origin","to_stop_lat":"43.5746959","placename":"Washington, USA","to_stop_lon":"-90.6404083","to_stop":{"id":"6801","name":"origin","lat":"43.5746959","placename":"La Farge, WI 54639, USA","lon":"-90.6404083"},"from_stop":{"name":"origin","id":"6813","lat":"47.7510741","lon":"-120.7401386","placename":"Washington, USA"}},{"transport_id":"17","id":"4508","transport_name":"None Selected","transport_description":null,"transport_unit":"kg km","transport_co2_eq":"0.000000","from_stop_id":"6814","from_stop_lat":"43.8041334","from_stop_lon":"-120.5542012","to_stop_id":"6801","to_stop_name":"origin","to_stop_lat":"43.5746959","placename":"Oregon, USA","to_stop_lon":"-90.6404083","to_stop":{"id":"6801","name":"origin","lat":"43.5746959","placename":"La Farge, WI 54639, USA","lon":"-90.6404083"},"from_stop":{"name":"origin","id":"6814","lat":"43.8041334","lon":"-120.5542012","placename":"Oregon, USA"}},{"transport_id":"17","id":"4509","transport_name":"None Selected","transport_description":null,"transport_unit":"kg km","transport_co2_eq":"0.000000","from_stop_id":"6815","from_stop_lat":"36.778261","from_stop_lon":"-119.4179324","to_stop_id":"6801","to_stop_name":"origin","to_stop_lat":"43.5746959","placename":"California, USA","to_stop_lon":"-90.6404083","to_stop":{"id":"6801","name":"origin","lat":"43.5746959","placename":"La Farge, WI 54639, USA","lon":"-90.6404083"},"from_stop":{"name":"origin","id":"6815","lat":"36.778261","lon":"-119.4179324","placename":"California, USA"}},{"transport_id":"17","id":"4510","transport_name":"None Selected","transport_description":null,"transport_unit":"kg km","transport_co2_eq":"0.000000","from_stop_id":"6816","from_stop_lat":"27.6648274","from_stop_lon":"-81.5157535","to_stop_id":"6801","to_stop_name":"origin","to_stop_lat":"43.5746959","placename":"Florida, USA","to_stop_lon":"-90.6404083","to_stop":{"id":"6801","name":"origin","lat":"43.5746959","placename":"La Farge, WI 54639, USA","lon":"-90.6404083"},"from_stop":{"name":"origin","id":"6816","lat":"27.6648274","lon":"-81.5157535","placename":"Florida, USA"}},{"transport_id":"17","id":"4511","transport_name":"None Selected","transport_description":null,"transport_unit":"kg km","transport_co2_eq":"0.000000","from_stop_id":"6817","from_stop_lat":"37.8393332","from_stop_lon":"-84.2700179","to_stop_id":"6801","to_stop_name":"origin","to_stop_lat":"43.5746959","placename":"Kentucky, USA","to_stop_lon":"-90.6404083","to_stop":{"id":"6801","name":"origin","lat":"43.5746959","placename":"La Farge, WI 54639, USA","lon":"-90.6404083"},"from_stop":{"name":"origin","id":"6817","lat":"37.8393332","lon":"-84.2700179","placename":"Kentucky, USA"}},{"transport_id":"17","id":"4512","transport_name":"None Selected","transport_description":null,"transport_unit":"kg km","transport_co2_eq":"0.000000","from_stop_id":"6818","from_stop_lat":"44.0682019","from_stop_lon":"-114.7420408","to_stop_id":"6801","to_stop_name":"origin","to_stop_lat":"43.5746959","placename":"Idaho, USA","to_stop_lon":"-90.6404083","to_stop":{"id":"6801","name":"origin","lat":"43.5746959","placename":"La Farge, WI 54639, USA","lon":"-90.6404083"},"from_stop":{"name":"origin","id":"6818","lat":"44.0682019","lon":"-114.7420408","placename":"Idaho, USA"}},{"transport_id":"17","id":"4513","transport_name":"None Selected","transport_description":null,"transport_unit":"kg km","transport_co2_eq":"0.000000","from_stop_id":"6819","from_stop_lat":"43.1938516","from_stop_lon":"-71.5723953","to_stop_id":"6801","to_stop_name":"origin","to_stop_lat":"43.5746959","placename":"New Hampshire, USA","to_stop_lon":"-90.6404083","to_stop":{"id":"6801","name":"origin","lat":"43.5746959","placename":"La Farge, WI 54639, USA","lon":"-90.6404083"},"from_stop":{"name":"origin","id":"6819","lat":"43.1938516","lon":"-71.5723953","placename":"New Hampshire, USA"}},{"transport_id":"17","id":"4514","transport_name":"None Selected","transport_description":null,"transport_unit":"kg km","transport_co2_eq":"0.000000","from_stop_id":"6820","from_stop_lat":"40.6331249","from_stop_lon":"-89.3985283","to_stop_id":"6801","to_stop_name":"origin","to_stop_lat":"43.5746959","placename":"Illinois, USA","to_stop_lon":"-90.6404083","to_stop":{"id":"6801","name":"origin","lat":"43.5746959","placename":"La Farge, WI 54639, USA","lon":"-90.6404083"},"from_stop":{"name":"origin","id":"6820","lat":"40.6331249","lon":"-89.3985283","placename":"Illinois, USA"}},{"transport_id":"17","id":"4515","transport_name":"None Selected","transport_description":null,"transport_unit":"kg km","transport_co2_eq":"0.000000","from_stop_id":"6821","from_stop_lat":"37.4315734","from_stop_lon":"-78.6568942","to_stop_id":"6801","to_stop_name":"origin","to_stop_lat":"43.5746959","placename":"Virginia, USA","to_stop_lon":"-90.6404083","to_stop":{"id":"6801","name":"origin","lat":"43.5746959","placename":"La Farge, WI 54639, USA","lon":"-90.6404083"},"from_stop":{"name":"origin","id":"6821","lat":"37.4315734","lon":"-78.6568942","placename":"Virginia, USA"}},{"transport_id":"17","id":"4516","transport_name":"None Selected","transport_description":null,"transport_unit":"kg km","transport_co2_eq":"0.000000","from_stop_id":"6822","from_stop_lat":"31.9685988","from_stop_lon":"-99.9018131","to_stop_id":"6801","to_stop_name":"origin","to_stop_lat":"43.5746959","placename":"Texas, USA","to_stop_lon":"-90.6404083","to_stop":{"id":"6801","name":"origin","lat":"43.5746959","placename":"La Farge, WI 54639, USA","lon":"-90.6404083"},"from_stop":{"name":"origin","id":"6822","lat":"31.9685988","lon":"-99.9018131","placename":"Texas, USA"}},{"transport_id":"17","id":"4517","transport_name":"None Selected","transport_description":null,"transport_unit":"kg km","transport_co2_eq":"0.000000","from_stop_id":"6823","from_stop_lat":"38.9108325","from_stop_lon":"-75.5276699","to_stop_id":"6801","to_stop_name":"origin","to_stop_lat":"43.5746959","placename":"Delaware, USA","to_stop_lon":"-90.6404083","to_stop":{"id":"6801","name":"origin","lat":"43.5746959","placename":"La Farge, WI 54639, USA","lon":"-90.6404083"},"from_stop":{"name":"origin","id":"6823","lat":"38.9108325","lon":"-75.5276699","placename":"Delaware, USA"}},{"transport_id":"17","id":"4518","transport_name":"None Selected","transport_description":null,"transport_unit":"kg km","transport_co2_eq":"0.000000","from_stop_id":"6824","from_stop_lat":"42.4072107","from_stop_lon":"-71.3824374","to_stop_id":"6801","to_stop_name":"origin","to_stop_lat":"43.5746959","placename":"Massachusetts, USA","to_stop_lon":"-90.6404083","to_stop":{"id":"6801","name":"origin","lat":"43.5746959","placename":"La Farge, WI 54639, USA","lon":"-90.6404083"},"from_stop":{"name":"origin","id":"6824","lat":"42.4072107","lon":"-71.3824374","placename":"Massachusetts, USA"}},{"transport_id":"17","id":"4519","transport_name":"None Selected","transport_description":null,"transport_unit":"kg km","transport_co2_eq":"0.000000","from_stop_id":"6825","from_stop_lat":"38.5976262","from_stop_lon":"-80.4549026","to_stop_id":"6801","to_stop_name":"origin","to_stop_lat":"43.5746959","placename":"West Virginia, USA","to_stop_lon":"-90.6404083","to_stop":{"id":"6801","name":"origin","lat":"43.5746959","placename":"La Farge, WI 54639, USA","lon":"-90.6404083"},"from_stop":{"name":"origin","id":"6825","lat":"38.5976262","lon":"-80.4549026","placename":"West Virginia, USA"}},{"transport_id":"17","id":"4520","transport_name":"None Selected","transport_description":null,"transport_unit":"kg km","transport_co2_eq":"0.000000","from_stop_id":"6826","from_stop_lat":"37.9642529","from_stop_lon":"-91.8318334","to_stop_id":"6801","to_stop_name":"origin","to_stop_lat":"43.5746959","placename":"Missouri, USA","to_stop_lon":"-90.6404083","to_stop":{"id":"6801","name":"origin","lat":"43.5746959","placename":"La Farge, WI 54639, USA","lon":"-90.6404083"},"from_stop":{"name":"origin","id":"6826","lat":"37.9642529","lon":"-91.8318334","placename":"Missouri, USA"}},{"transport_id":"17","id":"4521","transport_name":"None Selected","transport_description":null,"transport_unit":"kg km","transport_co2_eq":"0.000000","from_stop_id":"6827","from_stop_lat":"39.5500507","from_stop_lon":"-105.7820674","to_stop_id":"6801","to_stop_name":"origin","to_stop_lat":"43.5746959","placename":"Colorado, USA","to_stop_lon":"-90.6404083","to_stop":{"id":"6801","name":"origin","lat":"43.5746959","placename":"La Farge, WI 54639, USA","lon":"-90.6404083"},"from_stop":{"name":"origin","id":"6827","lat":"39.5500507","lon":"-105.7820674","placename":"Colorado, USA"}},{"transport_id":"17","id":"4522","transport_name":"None Selected","transport_description":null,"transport_unit":"kg km","transport_co2_eq":"0.000000","from_stop_id":"6828","from_stop_lat":"39.3209801","from_stop_lon":"-111.0937311","to_stop_id":"6801","to_stop_name":"origin","to_stop_lat":"43.5746959","placename":"Utah, USA","to_stop_lon":"-90.6404083","to_stop":{"id":"6801","name":"origin","lat":"43.5746959","placename":"La Farge, WI 54639, USA","lon":"-90.6404083"},"from_stop":{"name":"origin","id":"6828","lat":"39.3209801","lon":"-111.0937311","placename":"Utah, USA"}},{"transport_id":"17","id":"4523","transport_name":"None Selected","transport_description":null,"transport_unit":"kg km","transport_co2_eq":"0.000000","from_stop_id":"6829","from_stop_lat":"34.9727305","from_stop_lon":"-105.0323635","to_stop_id":"6801","to_stop_name":"origin","to_stop_lat":"43.5746959","placename":"New Mexico, USA","to_stop_lon":"-90.6404083","to_stop":{"id":"6801","name":"origin","lat":"43.5746959","placename":"La Farge, WI 54639, USA","lon":"-90.6404083"},"from_stop":{"name":"origin","id":"6829","lat":"34.9727305","lon":"-105.0323635","placename":"New Mexico, USA"}},{"transport_id":"17","id":"4524","transport_name":"None Selected","transport_description":null,"transport_unit":"kg km","transport_co2_eq":"0.000000","from_stop_id":"6830","from_stop_lat":"43.0759678","from_stop_lon":"-107.2902839","to_stop_id":"6801","to_stop_name":"origin","to_stop_lat":"43.5746959","placename":"Wyoming, USA","to_stop_lon":"-90.6404083","to_stop":{"id":"6801","name":"origin","lat":"43.5746959","placename":"La Farge, WI 54639, USA","lon":"-90.6404083"},"from_stop":{"name":"origin","id":"6830","lat":"43.0759678","lon":"-107.2902839","placename":"Wyoming, USA"}}],"outgoing":[]}}},"parts":[{"oid":"4393","imid":"4849","linkid":"","weight":"0","rawemissions":"0","emissions":"0","shipping":"2394.81","processemissions":"0","endoflifeemissions":"0","disposaltype":null,"disposalenergy":null,"disposalimpact":null,"disposalemissions":null,"description":"","name":"24 Farms","id":"4849","stops":{"origin":{"related_to":"4849","part_or_object":"p","notes":null,"placename":"Oregon, USA","id":6814,"name":"origin","lat":"43.8041334","lon":"-120.5542012","hops":{"incoming":[],"outgoing":[{"transport_id":"17","id":"4508","transport_name":"None Selected","transport_description":null,"transport_unit":"kg km","transport_co2_eq":"0.000000","from_stop_id":"6814","from_stop_lat":"43.8041334","from_stop_lon":"-120.5542012","from_stop_placename":"Oregon, USA","to_stop_id":"6801","to_stop_name":"origin","to_stop_lat":"43.5746959","to_stop_lon":"-90.6404083","to_stop_placename":"La Farge, WI 54639, USA","to_stop":{"id":"6801","name":"origin","lat":"43.5746959","lon":"-90.6404083","placename":"La Farge, WI 54639, USA"},"from_stop":{"name":"origin","id":"6814","lat":"43.8041334","lon":"-120.5542012","placename":"Oregon, USA"}}]}}},"processes":[],"eols":[]},{"oid":"4393","imid":"4850","linkid":"","weight":"0","rawemissions":"0","emissions":"0","shipping":"2547.23","processemissions":"0","endoflifeemissions":"0","disposaltype":null,"disposalenergy":null,"disposalimpact":null,"disposalemissions":null,"description":"","name":"14 Farms","id":"4850","stops":{"origin":{"related_to":"4850","part_or_object":"p","notes":null,"placename":"California, USA","id":6815,"name":"origin","lat":"36.778261","lon":"-119.4179324","hops":{"incoming":[],"outgoing":[{"transport_id":"17","id":"4509","transport_name":"None Selected","transport_description":null,"transport_unit":"kg km","transport_co2_eq":"0.000000","from_stop_id":"6815","from_stop_lat":"36.778261","from_stop_lon":"-119.4179324","from_stop_placename":"California, USA","to_stop_id":"6801","to_stop_name":"origin","to_stop_lat":"43.5746959","to_stop_lon":"-90.6404083","to_stop_placename":"La Farge, WI 54639, USA","to_stop":{"id":"6801","name":"origin","lat":"43.5746959","lon":"-90.6404083","placename":"La Farge, WI 54639, USA"},"from_stop":{"name":"origin","id":"6815","lat":"36.778261","lon":"-119.4179324","placename":"California, USA"}}]}}},"processes":[],"eols":[]},{"oid":"4393","imid":"4840","linkid":"","weight":"0","rawemissions":"0","emissions":"0","shipping":"1445.94","processemissions":"0","endoflifeemissions":"0","disposaltype":null,"disposalenergy":null,"disposalimpact":null,"disposalemissions":null,"description":"","name":"128 Farms","id":"4840","stops":{"origin":{"related_to":"4840","part_or_object":"p","notes":null,"placename":"Vermont, USA","id":6802,"name":"origin","lat":"44.5588028","lon":"-72.5778415","hops":{"incoming":[],"outgoing":[{"transport_id":"17","id":"4496","transport_name":"None Selected","transport_description":null,"transport_unit":"kg km","transport_co2_eq":"0.000000","from_stop_id":"6802","from_stop_lat":"44.5588028","from_stop_lon":"-72.5778415","from_stop_placename":"Vermont, USA","to_stop_id":"6801","to_stop_name":"origin","to_stop_lat":"43.5746959","to_stop_lon":"-90.6404083","to_stop_placename":"La Farge, WI 54639, USA","to_stop":{"id":"6801","name":"origin","lat":"43.5746959","lon":"-90.6404083","placename":"La Farge, WI 54639, USA"},"from_stop":{"name":"origin","id":"6802","lat":"44.5588028","lon":"-72.5778415","placename":"Vermont, USA"}}]}}},"processes":[],"eols":[]},{"oid":"4393","imid":"4858","linkid":"","weight":"0","rawemissions":"0","emissions":"0","shipping":"745.37","processemissions":"0","endoflifeemissions":"0","disposaltype":null,"disposalenergy":null,"disposalimpact":null,"disposalemissions":null,"description":"","name":"5 Farms","id":"4858","stops":{"origin":{"related_to":"4858","part_or_object":"p","notes":null,"placename":"South Dakota, USA","id":6803,"name":"origin","lat":"43.9695148","lon":"-99.9018131","hops":{"incoming":[],"outgoing":[{"transport_id":"17","id":"4497","transport_name":"None Selected","transport_description":null,"transport_unit":"kg km","transport_co2_eq":"0.000000","from_stop_id":"6803","from_stop_lat":"43.9695148","from_stop_lon":"-99.9018131","from_stop_placename":"South Dakota, USA","to_stop_id":"6801","to_stop_name":"origin","to_stop_lat":"43.5746959","to_stop_lon":"-90.6404083","to_stop_placename":"La Farge, WI 54639, USA","to_stop":{"id":"6801","name":"origin","lat":"43.5746959","lon":"-90.6404083","placename":"La Farge, WI 54639, USA"},"from_stop":{"name":"origin","id":"6803","lat":"43.9695148","lon":"-99.9018131","placename":"South Dakota, USA"}}]}}},"processes":[],"eols":[]},{"oid":"4393","imid":"4838","linkid":"","weight":"0","rawemissions":"0","emissions":"0","shipping":"150.96","processemissions":"0","endoflifeemissions":"0","disposaltype":null,"disposalenergy":null,"disposalimpact":null,"disposalemissions":null,"description":"","name":"511 Farms","id":"4838","stops":{"origin":{"related_to":"4838","part_or_object":"p","notes":null,"placename":"Wisconsin, USA","id":6804,"name":"origin","lat":"43.7844397","lon":"-88.7878678","hops":{"incoming":[],"outgoing":[{"transport_id":"17","id":"4498","transport_name":"None Selected","transport_description":null,"transport_unit":"kg km","transport_co2_eq":"0.000000","from_stop_id":"6804","from_stop_lat":"43.7844397","from_stop_lon":"-88.7878678","from_stop_placename":"Wisconsin, USA","to_stop_id":"6801","to_stop_name":"origin","to_stop_lat":"43.5746959","to_stop_lon":"-90.6404083","to_stop_placename":"La Farge, WI 54639, USA","to_stop":{"id":"6801","name":"origin","lat":"43.5746959","lon":"-90.6404083","placename":"La Farge, WI 54639, USA"},"from_stop":{"name":"origin","id":"6804","lat":"43.7844397","lon":"-88.7878678","placename":"Wisconsin, USA"}}]}}},"processes":[],"eols":[]},{"oid":"4393","imid":"4839","linkid":"","weight":"0","rawemissions":"0","emissions":"0","shipping":"729.54","processemissions":"0","endoflifeemissions":"0","disposaltype":null,"disposalenergy":null,"disposalimpact":null,"disposalemissions":null,"description":"","name":"150 Farms","id":"4839","stops":{"origin":{"related_to":"4839","part_or_object":"p","notes":null,"placename":"Ohio, USA","id":6805,"name":"origin","lat":"40.4172871","lon":"-82.907123","hops":{"incoming":[],"outgoing":[{"transport_id":"17","id":"4499","transport_name":"None Selected","transport_description":null,"transport_unit":"kg km","transport_co2_eq":"0.000000","from_stop_id":"6805","from_stop_lat":"40.4172871","from_stop_lon":"-82.907123","from_stop_placename":"Ohio, USA","to_stop_id":"6801","to_stop_name":"origin","to_stop_lat":"43.5746959","to_stop_lon":"-90.6404083","to_stop_placename":"La Farge, WI 54639, USA","to_stop":{"id":"6801","name":"origin","lat":"43.5746959","lon":"-90.6404083","placename":"La Farge, WI 54639, USA"},"from_stop":{"name":"origin","id":"6805","lat":"40.4172871","lon":"-82.907123","placename":"Ohio, USA"}}]}}},"processes":[],"eols":[]},{"oid":"4393","imid":"4841","linkid":"","weight":"0","rawemissions":"0","emissions":"0","shipping":"473.37","processemissions":"0","endoflifeemissions":"0","disposaltype":null,"disposalenergy":null,"disposalimpact":null,"disposalemissions":null,"description":"","name":"117 Farms","id":"4841","stops":{"origin":{"related_to":"4841","part_or_object":"p","notes":null,"placename":"Minnesota, USA","id":6806,"name":"origin","lat":"46.729553","lon":"-94.6858998","hops":{"incoming":[],"outgoing":[{"transport_id":"17","id":"4500","transport_name":"None Selected","transport_description":null,"transport_unit":"kg km","transport_co2_eq":"0.000000","from_stop_id":"6806","from_stop_lat":"46.729553","from_stop_lon":"-94.6858998","from_stop_placename":"Minnesota, USA","to_stop_id":"6801","to_stop_name":"origin","to_stop_lat":"43.5746959","to_stop_lon":"-90.6404083","to_stop_placename":"La Farge, WI 54639, USA","to_stop":{"id":"6801","name":"origin","lat":"43.5746959","lon":"-90.6404083","placename":"La Farge, WI 54639, USA"},"from_stop":{"name":"origin","id":"6806","lat":"46.729553","lon":"-94.6858998","placename":"Minnesota, USA"}}]}}},"processes":[],"eols":[]},{"oid":"4393","imid":"4847","linkid":"","weight":"0","rawemissions":"0","emissions":"0","shipping":"1690.72","processemissions":"0","endoflifeemissions":"0","disposaltype":null,"disposalenergy":null,"disposalimpact":null,"disposalemissions":null,"description":"","name":"36 Farms","id":"4847","stops":{"origin":{"related_to":"4847","part_or_object":"p","notes":null,"placename":"Maine, USA","id":6812,"name":"origin","lat":"45.253783","lon":"-69.4454689","hops":{"incoming":[],"outgoing":[{"transport_id":"17","id":"4506","transport_name":"None Selected","transport_description":null,"transport_unit":"kg km","transport_co2_eq":"0.000000","from_stop_id":"6812","from_stop_lat":"45.253783","from_stop_lon":"-69.4454689","from_stop_placename":"Maine, USA","to_stop_id":"6801","to_stop_name":"origin","to_stop_lat":"43.5746959","to_stop_lon":"-90.6404083","to_stop_placename":"La Farge, WI 54639, USA","to_stop":{"id":"6801","name":"origin","lat":"43.5746959","lon":"-90.6404083","placename":"La Farge, WI 54639, USA"},"from_stop":{"name":"origin","id":"6812","lat":"45.253783","lon":"-69.4454689","placename":"Maine, USA"}}]}}},"processes":[],"eols":[]},{"oid":"4393","imid":"4842","linkid":"","weight":"0","rawemissions":"0","emissions":"0","shipping":"1135.19","processemissions":"0","endoflifeemissions":"0","disposaltype":null,"disposalenergy":null,"disposalimpact":null,"disposalemissions":null,"description":"","name":"108 Farms","id":"4842","stops":{"origin":{"related_to":"4842","part_or_object":"p","notes":null,"placename":"Pennsylvania, USA","id":6807,"name":"origin","lat":"41.2033216","lon":"-77.1945247","hops":{"incoming":[],"outgoing":[{"transport_id":"17","id":"4501","transport_name":"None Selected","transport_description":null,"transport_unit":"kg km","transport_co2_eq":"0.000000","from_stop_id":"6807","from_stop_lat":"41.2033216","from_stop_lon":"-77.1945247","from_stop_placename":"Pennsylvania, USA","to_stop_id":"6801","to_stop_name":"origin","to_stop_lat":"43.5746959","to_stop_lon":"-90.6404083","to_stop_placename":"La Farge, WI 54639, USA","to_stop":{"id":"6801","name":"origin","lat":"43.5746959","lon":"-90.6404083","placename":"La Farge, WI 54639, USA"},"from_stop":{"name":"origin","id":"6807","lat":"41.2033216","lon":"-77.1945247","placename":"Pennsylvania, USA"}}]}}},"processes":[],"eols":[]},{"oid":"4393","imid":"4843","linkid":"","weight":"0","rawemissions":"0","emissions":"0","shipping":"535.21","processemissions":"0","endoflifeemissions":"0","disposaltype":null,"disposalenergy":null,"disposalimpact":null,"disposalemissions":null,"description":"","name":"101 Farms","id":"4843","stops":{"origin":{"related_to":"4843","part_or_object":"p","notes":null,"placename":"Indiana, USA","id":6808,"name":"origin","lat":"40.5512165","lon":"-85.6023643","hops":{"incoming":[],"outgoing":[{"transport_id":"17","id":"4502","transport_name":"None Selected","transport_description":null,"transport_unit":"kg km","transport_co2_eq":"0.000000","from_stop_id":"6808","from_stop_lat":"40.5512165","from_stop_lon":"-85.6023643","from_stop_placename":"Indiana, USA","to_stop_id":"6801","to_stop_name":"origin","to_stop_lat":"43.5746959","to_stop_lon":"-90.6404083","to_stop_placename":"La Farge, WI 54639, USA","to_stop":{"id":"6801","name":"origin","lat":"43.5746959","lon":"-90.6404083","placename":"La Farge, WI 54639, USA"},"from_stop":{"name":"origin","id":"6808","lat":"40.5512165","lon":"-85.6023643","placename":"Indiana, USA"}}]}}},"processes":[],"eols":[]},{"oid":"4393","imid":"4844","linkid":"","weight":"0","rawemissions":"0","emissions":"0","shipping":"1325.66","processemissions":"0","endoflifeemissions":"0","disposaltype":null,"disposalenergy":null,"disposalimpact":null,"disposalemissions":null,"description":"","name":"88 Farms","id":"4844","stops":{"origin":{"related_to":"4844","part_or_object":"p","notes":null,"placename":"New York, USA","id":6809,"name":"origin","lat":"43.2994285","lon":"-74.2179326","hops":{"incoming":[],"outgoing":[{"transport_id":"17","id":"4503","transport_name":"None Selected","transport_description":null,"transport_unit":"kg km","transport_co2_eq":"0.000000","from_stop_id":"6809","from_stop_lat":"43.2994285","from_stop_lon":"-74.2179326","from_stop_placename":"New York, USA","to_stop_id":"6801","to_stop_name":"origin","to_stop_lat":"43.5746959","to_stop_lon":"-90.6404083","to_stop_placename":"La Farge, WI 54639, USA","to_stop":{"id":"6801","name":"origin","lat":"43.5746959","lon":"-90.6404083","placename":"La Farge, WI 54639, USA"},"from_stop":{"name":"origin","id":"6809","lat":"43.2994285","lon":"-74.2179326","placename":"New York, USA"}}]}}},"processes":[],"eols":[]},{"oid":"4393","imid":"4845","linkid":"","weight":"0","rawemissions":"0","emissions":"0","shipping":"275.75","processemissions":"0","endoflifeemissions":"0","disposaltype":null,"disposalenergy":null,"disposalimpact":null,"disposalemissions":null,"description":"","name":"65 Farms","id":"4845","stops":{"origin":{"related_to":"4845","part_or_object":"p","notes":null,"placename":"Iowa, USA","id":6810,"name":"origin","lat":"41.8780025","lon":"-93.097702","hops":{"incoming":[],"outgoing":[{"transport_id":"17","id":"4504","transport_name":"None Selected","transport_description":null,"transport_unit":"kg km","transport_co2_eq":"0.000000","from_stop_id":"6810","from_stop_lat":"41.8780025","from_stop_lon":"-93.097702","from_stop_placename":"Iowa, USA","to_stop_id":"6801","to_stop_name":"origin","to_stop_lat":"43.5746959","to_stop_lon":"-90.6404083","to_stop_placename":"La Farge, WI 54639, USA","to_stop":{"id":"6801","name":"origin","lat":"43.5746959","lon":"-90.6404083","placename":"La Farge, WI 54639, USA"},"from_stop":{"name":"origin","id":"6810","lat":"41.8780025","lon":"-93.097702","placename":"Iowa, USA"}}]}}},"processes":[],"eols":[]},{"oid":"4393","imid":"4846","linkid":"","weight":"0","rawemissions":"0","emissions":"0","shipping":"412.05","processemissions":"0","endoflifeemissions":"0","disposaltype":null,"disposalenergy":null,"disposalimpact":null,"disposalemissions":null,"description":"","name":"48 Farms","id":"4846","stops":{"origin":{"related_to":"4846","part_or_object":"p","notes":null,"placename":"Michigan, USA","id":6811,"name":"origin","lat":"44.3148443","lon":"-85.6023643","hops":{"incoming":[],"outgoing":[{"transport_id":"17","id":"4505","transport_name":"None Selected","transport_description":null,"transport_unit":"kg km","transport_co2_eq":"0.000000","from_stop_id":"6811","from_stop_lat":"44.3148443","from_stop_lon":"-85.6023643","from_stop_placename":"Michigan, USA","to_stop_id":"6801","to_stop_name":"origin","to_stop_lat":"43.5746959","to_stop_lon":"-90.6404083","to_stop_placename":"La Farge, WI 54639, USA","to_stop":{"id":"6801","name":"origin","lat":"43.5746959","lon":"-90.6404083","placename":"La Farge, WI 54639, USA"},"from_stop":{"name":"origin","id":"6811","lat":"44.3148443","lon":"-85.6023643","placename":"Michigan, USA"}}]}}},"processes":[],"eols":[]},{"oid":"4393","imid":"4860","linkid":"","weight":"0","rawemissions":"0","emissions":"0","shipping":"1569.94","processemissions":"0","endoflifeemissions":"0","disposaltype":null,"disposalenergy":null,"disposalimpact":null,"disposalemissions":null,"description":"","name":"2 Farms","id":"4860","stops":{"origin":{"related_to":"4860","part_or_object":"p","notes":null,"placename":"Massachusetts, USA","id":6824,"name":"origin","lat":"42.4072107","lon":"-71.3824374","hops":{"incoming":[],"outgoing":[{"transport_id":"17","id":"4518","transport_name":"None Selected","transport_description":null,"transport_unit":"kg km","transport_co2_eq":"0.000000","from_stop_id":"6824","from_stop_lat":"42.4072107","from_stop_lon":"-71.3824374","from_stop_placename":"Massachusetts, USA","to_stop_id":"6801","to_stop_name":"origin","to_stop_lat":"43.5746959","to_stop_lon":"-90.6404083","to_stop_placename":"La Farge, WI 54639, USA","to_stop":{"id":"6801","name":"origin","lat":"43.5746959","lon":"-90.6404083","placename":"La Farge, WI 54639, USA"},"from_stop":{"name":"origin","id":"6824","lat":"42.4072107","lon":"-71.3824374","placename":"Massachusetts, USA"}}]}}},"processes":[],"eols":[]},{"oid":"4393","imid":"4861","linkid":"","weight":"0","rawemissions":"0","emissions":"0","shipping":"1017.34","processemissions":"0","endoflifeemissions":"0","disposaltype":null,"disposalenergy":null,"disposalimpact":null,"disposalemissions":null,"description":"","name":"2 Farms","id":"4861","stops":{"origin":{"related_to":"4861","part_or_object":"p","notes":null,"placename":"West Virginia, USA","id":6825,"name":"origin","lat":"38.5976262","lon":"-80.4549026","hops":{"incoming":[],"outgoing":[{"transport_id":"17","id":"4519","transport_name":"None Selected","transport_description":null,"transport_unit":"kg km","transport_co2_eq":"0.000000","from_stop_id":"6825","from_stop_lat":"38.5976262","from_stop_lon":"-80.4549026","from_stop_placename":"West Virginia, USA","to_stop_id":"6801","to_stop_name":"origin","to_stop_lat":"43.5746959","to_stop_lon":"-90.6404083","to_stop_placename":"La Farge, WI 54639, USA","to_stop":{"id":"6801","name":"origin","lat":"43.5746959","lon":"-90.6404083","placename":"La Farge, WI 54639, USA"},"from_stop":{"name":"origin","id":"6825","lat":"38.5976262","lon":"-80.4549026","placename":"West Virginia, USA"}}]}}},"processes":[],"eols":[]},{"oid":"4393","imid":"4862","linkid":"","weight":"0","rawemissions":"0","emissions":"0","shipping":"632.56","processemissions":"0","endoflifeemissions":"0","disposaltype":null,"disposalenergy":null,"disposalimpact":null,"disposalemissions":null,"description":"","name":"1 Farm","id":"4862","stops":{"origin":{"related_to":"4862","part_or_object":"p","notes":null,"placename":"Missouri, USA","id":6826,"name":"origin","lat":"37.9642529","lon":"-91.8318334","hops":{"incoming":[],"outgoing":[{"transport_id":"17","id":"4520","transport_name":"None Selected","transport_description":null,"transport_unit":"kg km","transport_co2_eq":"0.000000","from_stop_id":"6826","from_stop_lat":"37.9642529","from_stop_lon":"-91.8318334","from_stop_placename":"Missouri, USA","to_stop_id":"6801","to_stop_name":"origin","to_stop_lat":"43.5746959","to_stop_lon":"-90.6404083","to_stop_placename":"La Farge, WI 54639, USA","to_stop":{"id":"6801","name":"origin","lat":"43.5746959","lon":"-90.6404083","placename":"La Farge, WI 54639, USA"},"from_stop":{"name":"origin","id":"6826","lat":"37.9642529","lon":"-91.8318334","placename":"Missouri, USA"}}]}}},"processes":[],"eols":[]},{"oid":"4393","imid":"4863","linkid":"","weight":"0","rawemissions":"0","emissions":"0","shipping":"1336.06","processemissions":"0","endoflifeemissions":"0","disposaltype":null,"disposalenergy":null,"disposalimpact":null,"disposalemissions":null,"description":"","name":"1 Farm","id":"4863","stops":{"origin":{"related_to":"4863","part_or_object":"p","notes":null,"placename":"Colorado, USA","id":6827,"name":"origin","lat":"39.5500507","lon":"-105.7820674","hops":{"incoming":[],"outgoing":[{"transport_id":"17","id":"4521","transport_name":"None Selected","transport_description":null,"transport_unit":"kg km","transport_co2_eq":"0.000000","from_stop_id":"6827","from_stop_lat":"39.5500507","from_stop_lon":"-105.7820674","from_stop_placename":"Colorado, USA","to_stop_id":"6801","to_stop_name":"origin","to_stop_lat":"43.5746959","to_stop_lon":"-90.6404083","to_stop_placename":"La Farge, WI 54639, USA","to_stop":{"id":"6801","name":"origin","lat":"43.5746959","lon":"-90.6404083","placename":"La Farge, WI 54639, USA"},"from_stop":{"name":"origin","id":"6827","lat":"39.5500507","lon":"-105.7820674","placename":"Colorado, USA"}}]}}},"processes":[],"eols":[]},{"oid":"4393","imid":"4864","linkid":"","weight":"0","rawemissions":"0","emissions":"0","shipping":"1765.99","processemissions":"0","endoflifeemissions":"0","disposaltype":null,"disposalenergy":null,"disposalimpact":null,"disposalemissions":null,"description":"","name":"2 Farms","id":"4864","stops":{"origin":{"related_to":"4864","part_or_object":"p","notes":null,"placename":"Utah, USA","id":6828,"name":"origin","lat":"39.3209801","lon":"-111.0937311","hops":{"incoming":[],"outgoing":[{"transport_id":"17","id":"4522","transport_name":"None Selected","transport_description":null,"transport_unit":"kg km","transport_co2_eq":"0.000000","from_stop_id":"6828","from_stop_lat":"39.3209801","from_stop_lon":"-111.0937311","from_stop_placename":"Utah, USA","to_stop_id":"6801","to_stop_name":"origin","to_stop_lat":"43.5746959","to_stop_lon":"-90.6404083","to_stop_placename":"La Farge, WI 54639, USA","to_stop":{"id":"6801","name":"origin","lat":"43.5746959","lon":"-90.6404083","placename":"La Farge, WI 54639, USA"},"from_stop":{"name":"origin","id":"6828","lat":"39.3209801","lon":"-111.0937311","placename":"Utah, USA"}}]}}},"processes":[],"eols":[]},{"oid":"4393","imid":"4865","linkid":"","weight":"0","rawemissions":"0","emissions":"0","shipping":"1563.07","processemissions":"0","endoflifeemissions":"0","disposaltype":null,"disposalenergy":null,"disposalimpact":null,"disposalemissions":null,"description":"","name":"1 Farm","id":"4865","stops":{"origin":{"related_to":"4865","part_or_object":"p","notes":null,"placename":"New Mexico, USA","id":6829,"name":"origin","lat":"34.9727305","lon":"-105.0323635","hops":{"incoming":[],"outgoing":[{"transport_id":"17","id":"4523","transport_name":"None Selected","transport_description":null,"transport_unit":"kg km","transport_co2_eq":"0.000000","from_stop_id":"6829","from_stop_lat":"34.9727305","from_stop_lon":"-105.0323635","from_stop_placename":"New Mexico, USA","to_stop_id":"6801","to_stop_name":"origin","to_stop_lat":"43.5746959","to_stop_lon":"-90.6404083","to_stop_placename":"La Farge, WI 54639, USA","to_stop":{"id":"6801","name":"origin","lat":"43.5746959","lon":"-90.6404083","placename":"La Farge, WI 54639, USA"},"from_stop":{"name":"origin","id":"6829","lat":"34.9727305","lon":"-105.0323635","placename":"New Mexico, USA"}}]}}},"processes":[],"eols":[]},{"oid":"4393","imid":"4866","linkid":"","weight":"0","rawemissions":"0","emissions":"0","shipping":"1347.22","processemissions":"0","endoflifeemissions":"0","disposaltype":null,"disposalenergy":null,"disposalimpact":null,"disposalemissions":null,"description":"","name":"2 Farms","id":"4866","stops":{"origin":{"related_to":"4866","part_or_object":"p","notes":null,"placename":"Wyoming, USA","id":6830,"name":"origin","lat":"43.0759678","lon":"-107.2902839","hops":{"incoming":[],"outgoing":[{"transport_id":"17","id":"4524","transport_name":"None Selected","transport_description":null,"transport_unit":"kg km","transport_co2_eq":"0.000000","from_stop_id":"6830","from_stop_lat":"43.0759678","from_stop_lon":"-107.2902839","from_stop_placename":"Wyoming, USA","to_stop_id":"6801","to_stop_name":"origin","to_stop_lat":"43.5746959","to_stop_lon":"-90.6404083","to_stop_placename":"La Farge, WI 54639, USA","to_stop":{"id":"6801","name":"origin","lat":"43.5746959","lon":"-90.6404083","placename":"La Farge, WI 54639, USA"},"from_stop":{"name":"origin","id":"6830","lat":"43.0759678","lon":"-107.2902839","placename":"Wyoming, USA"}}]}}},"processes":[],"eols":[]},{"oid":"4393","imid":"4848","linkid":"","weight":"0","rawemissions":"0","emissions":"0","shipping":"2371.64","processemissions":"0","endoflifeemissions":"0","disposaltype":null,"disposalenergy":null,"disposalimpact":null,"disposalemissions":null,"description":"","name":"30 Farms","id":"4848","stops":{"origin":{"related_to":"4848","part_or_object":"p","notes":null,"placename":"Washington, USA","id":6813,"name":"origin","lat":"47.7510741","lon":"-120.7401386","hops":{"incoming":[],"outgoing":[{"transport_id":"17","id":"4507","transport_name":"None Selected","transport_description":null,"transport_unit":"kg km","transport_co2_eq":"0.000000","from_stop_id":"6813","from_stop_lat":"47.7510741","from_stop_lon":"-120.7401386","from_stop_placename":"Washington, USA","to_stop_id":"6801","to_stop_name":"origin","to_stop_lat":"43.5746959","to_stop_lon":"-90.6404083","to_stop_placename":"La Farge, WI 54639, USA","to_stop":{"id":"6801","name":"origin","lat":"43.5746959","lon":"-90.6404083","placename":"La Farge, WI 54639, USA"},"from_stop":{"name":"origin","id":"6813","lat":"47.7510741","lon":"-120.7401386","placename":"Washington, USA"}}]}}},"processes":[],"eols":[]},{"oid":"4393","imid":"4851","linkid":"","weight":"0","rawemissions":"0","emissions":"0","shipping":"1951.11","processemissions":"0","endoflifeemissions":"0","disposaltype":null,"disposalenergy":null,"disposalimpact":null,"disposalemissions":null,"description":"","name":"14 Farms","id":"4851","stops":{"origin":{"related_to":"4851","part_or_object":"p","notes":null,"placename":"Florida, USA","id":6816,"name":"origin","lat":"27.6648274","lon":"-81.5157535","hops":{"incoming":[],"outgoing":[{"transport_id":"17","id":"4510","transport_name":"None Selected","transport_description":null,"transport_unit":"kg km","transport_co2_eq":"0.000000","from_stop_id":"6816","from_stop_lat":"27.6648274","from_stop_lon":"-81.5157535","from_stop_placename":"Florida, USA","to_stop_id":"6801","to_stop_name":"origin","to_stop_lat":"43.5746959","to_stop_lon":"-90.6404083","to_stop_placename":"La Farge, WI 54639, USA","to_stop":{"id":"6801","name":"origin","lat":"43.5746959","lon":"-90.6404083","placename":"La Farge, WI 54639, USA"},"from_stop":{"name":"origin","id":"6816","lat":"27.6648274","lon":"-81.5157535","placename":"Florida, USA"}}]}}},"processes":[],"eols":[]},{"oid":"4393","imid":"4852","linkid":"","weight":"0","rawemissions":"0","emissions":"0","shipping":"834.09","processemissions":"0","endoflifeemissions":"0","disposaltype":null,"disposalenergy":null,"disposalimpact":null,"disposalemissions":null,"description":"","name":"18 Farms","id":"4852","stops":{"origin":{"related_to":"4852","part_or_object":"p","notes":null,"placename":"Kentucky, USA","id":6817,"name":"origin","lat":"37.8393332","lon":"-84.2700179","hops":{"incoming":[],"outgoing":[{"transport_id":"17","id":"4511","transport_name":"None Selected","transport_description":null,"transport_unit":"kg km","transport_co2_eq":"0.000000","from_stop_id":"6817","from_stop_lat":"37.8393332","from_stop_lon":"-84.2700179","from_stop_placename":"Kentucky, USA","to_stop_id":"6801","to_stop_name":"origin","to_stop_lat":"43.5746959","to_stop_lon":"-90.6404083","to_stop_placename":"La Farge, WI 54639, USA","to_stop":{"id":"6801","name":"origin","lat":"43.5746959","lon":"-90.6404083","placename":"La Farge, WI 54639, USA"},"from_stop":{"name":"origin","id":"6817","lat":"37.8393332","lon":"-84.2700179","placename":"Kentucky, USA"}}]}}},"processes":[],"eols":[]},{"oid":"4393","imid":"4853","linkid":"","weight":"0","rawemissions":"0","emissions":"0","shipping":"1929.63","processemissions":"0","endoflifeemissions":"0","disposaltype":null,"disposalenergy":null,"disposalimpact":null,"disposalemissions":null,"description":"","name":"12 Farms","id":"4853","stops":{"origin":{"related_to":"4853","part_or_object":"p","notes":null,"placename":"Idaho, USA","id":6818,"name":"origin","lat":"44.0682019","lon":"-114.7420408","hops":{"incoming":[],"outgoing":[{"transport_id":"17","id":"4512","transport_name":"None Selected","transport_description":null,"transport_unit":"kg km","transport_co2_eq":"0.000000","from_stop_id":"6818","from_stop_lat":"44.0682019","from_stop_lon":"-114.7420408","from_stop_placename":"Idaho, USA","to_stop_id":"6801","to_stop_name":"origin","to_stop_lat":"43.5746959","to_stop_lon":"-90.6404083","to_stop_placename":"La Farge, WI 54639, USA","to_stop":{"id":"6801","name":"origin","lat":"43.5746959","lon":"-90.6404083","placename":"La Farge, WI 54639, USA"},"from_stop":{"name":"origin","id":"6818","lat":"44.0682019","lon":"-114.7420408","placename":"Idaho, USA"}}]}}},"processes":[],"eols":[]},{"oid":"4393","imid":"4854","linkid":"","weight":"0","rawemissions":"0","emissions":"0","shipping":"1539.85","processemissions":"0","endoflifeemissions":"0","disposaltype":null,"disposalenergy":null,"disposalimpact":null,"disposalemissions":null,"description":"","name":"10 Farms","id":"4854","stops":{"origin":{"related_to":"4854","part_or_object":"p","notes":null,"placename":"New Hampshire, USA","id":6819,"name":"origin","lat":"43.1938516","lon":"-71.5723953","hops":{"incoming":[],"outgoing":[{"transport_id":"17","id":"4513","transport_name":"None Selected","transport_description":null,"transport_unit":"kg km","transport_co2_eq":"0.000000","from_stop_id":"6819","from_stop_lat":"43.1938516","from_stop_lon":"-71.5723953","from_stop_placename":"New Hampshire, USA","to_stop_id":"6801","to_stop_name":"origin","to_stop_lat":"43.5746959","to_stop_lon":"-90.6404083","to_stop_placename":"La Farge, WI 54639, USA","to_stop":{"id":"6801","name":"origin","lat":"43.5746959","lon":"-90.6404083","placename":"La Farge, WI 54639, USA"},"from_stop":{"name":"origin","id":"6819","lat":"43.1938516","lon":"-71.5723953","placename":"New Hampshire, USA"}}]}}},"processes":[],"eols":[]},{"oid":"4393","imid":"4855","linkid":"","weight":"0","rawemissions":"0","emissions":"0","shipping":"343.13","processemissions":"0","endoflifeemissions":"0","disposaltype":null,"disposalenergy":null,"disposalimpact":null,"disposalemissions":null,"description":"","name":"9 Farms","id":"4855","stops":{"origin":{"related_to":"4855","part_or_object":"p","notes":null,"placename":"Illinois, USA","id":6820,"name":"origin","lat":"40.6331249","lon":"-89.3985283","hops":{"incoming":[],"outgoing":[{"transport_id":"17","id":"4514","transport_name":"None Selected","transport_description":null,"transport_unit":"kg km","transport_co2_eq":"0.000000","from_stop_id":"6820","from_stop_lat":"40.6331249","from_stop_lon":"-89.3985283","from_stop_placename":"Illinois, USA","to_stop_id":"6801","to_stop_name":"origin","to_stop_lat":"43.5746959","to_stop_lon":"-90.6404083","to_stop_placename":"La Farge, WI 54639, USA","to_stop":{"id":"6801","name":"origin","lat":"43.5746959","lon":"-90.6404083","placename":"La Farge, WI 54639, USA"},"from_stop":{"name":"origin","id":"6820","lat":"40.6331249","lon":"-89.3985283","placename":"Illinois, USA"}}]}}},"processes":[],"eols":[]},{"oid":"4393","imid":"4856","linkid":"","weight":"0","rawemissions":"0","emissions":"0","shipping":"1221.39","processemissions":"0","endoflifeemissions":"0","disposaltype":null,"disposalenergy":null,"disposalimpact":null,"disposalemissions":null,"description":"","name":"6 Farms","id":"4856","stops":{"origin":{"related_to":"4856","part_or_object":"p","notes":null,"placename":"Virginia, USA","id":6821,"name":"origin","lat":"37.4315734","lon":"-78.6568942","hops":{"incoming":[],"outgoing":[{"transport_id":"17","id":"4515","transport_name":"None Selected","transport_description":null,"transport_unit":"kg km","transport_co2_eq":"0.000000","from_stop_id":"6821","from_stop_lat":"37.4315734","from_stop_lon":"-78.6568942","from_stop_placename":"Virginia, USA","to_stop_id":"6801","to_stop_name":"origin","to_stop_lat":"43.5746959","to_stop_lon":"-90.6404083","to_stop_placename":"La Farge, WI 54639, USA","to_stop":{"id":"6801","name":"origin","lat":"43.5746959","lon":"-90.6404083","placename":"La Farge, WI 54639, USA"},"from_stop":{"name":"origin","id":"6821","lat":"37.4315734","lon":"-78.6568942","placename":"Virginia, USA"}}]}}},"processes":[],"eols":[]},{"oid":"4393","imid":"4857","linkid":"","weight":"0","rawemissions":"0","emissions":"0","shipping":"1525.27","processemissions":"0","endoflifeemissions":"0","disposaltype":null,"disposalenergy":null,"disposalimpact":null,"disposalemissions":null,"description":"","name":"5 Farms","id":"4857","stops":{"origin":{"related_to":"4857","part_or_object":"p","notes":null,"placename":"Texas, USA","id":6822,"name":"origin","lat":"31.9685988","lon":"-99.9018131","hops":{"incoming":[],"outgoing":[{"transport_id":"17","id":"4516","transport_name":"None Selected","transport_description":null,"transport_unit":"kg km","transport_co2_eq":"0.000000","from_stop_id":"6822","from_stop_lat":"31.9685988","from_stop_lon":"-99.9018131","from_stop_placename":"Texas, USA","to_stop_id":"6801","to_stop_name":"origin","to_stop_lat":"43.5746959","to_stop_lon":"-90.6404083","to_stop_placename":"La Farge, WI 54639, USA","to_stop":{"id":"6801","name":"origin","lat":"43.5746959","lon":"-90.6404083","placename":"La Farge, WI 54639, USA"},"from_stop":{"name":"origin","id":"6822","lat":"31.9685988","lon":"-99.9018131","placename":"Texas, USA"}}]}}},"processes":[],"eols":[]},{"oid":"4393","imid":"4859","linkid":"","weight":"0","rawemissions":"0","emissions":"0","shipping":"1364.84","processemissions":"0","endoflifeemissions":"0","disposaltype":null,"disposalenergy":null,"disposalimpact":null,"disposalemissions":null,"description":"","name":"4 Farms","id":"4859","stops":{"origin":{"related_to":"4859","part_or_object":"p","notes":null,"placename":"Delaware, USA","id":6823,"name":"origin","lat":"38.9108325","lon":"-75.5276699","hops":{"incoming":[],"outgoing":[{"transport_id":"17","id":"4517","transport_name":"None Selected","transport_description":null,"transport_unit":"kg km","transport_co2_eq":"0.000000","from_stop_id":"6823","from_stop_lat":"38.9108325","from_stop_lon":"-75.5276699","from_stop_placename":"Delaware, USA","to_stop_id":"6801","to_stop_name":"origin","to_stop_lat":"43.5746959","to_stop_lon":"-90.6404083","to_stop_placename":"La Farge, WI 54639, USA","to_stop":{"id":"6801","name":"origin","lat":"43.5746959","lon":"-90.6404083","placename":"La Farge, WI 54639, USA"},"from_stop":{"name":"origin","id":"6823","lat":"38.9108325","lon":"-75.5276699","placename":"Delaware, USA"}}]}}},"processes":[],"eols":[]}],"user":{"name":"leo","id":"1"}}}